City_ID,City,Lat,Lng,Max Temp,Humidity,Cloudiness,Wind Speed,Country,Date
0,vilyuchinsk,52.9306,158.4028,3.15,92,100,5.48,RU,1700414139
1,preobrazheniye,42.9019,133.9064,-0.73,69,27,4.55,RU,1700414133
2,usinsk,65.9939,57.5281,-12.18,96,96,4.02,RU,1700414328
3,ushuaia,-54.8,-68.3,3.81,70,75,8.23,AR,1700414045
4,edinburgh of the seven seas,-37.0676,-12.3116,12.68,70,49,11.38,SH,1700414328
5,fortaleza,-3.7227,-38.5247,31.07,68,40,7.2,BR,1700414328
6,port-aux-francais,-49.35,70.2167,6.61,96,100,18.46,TF,1700414098
7,yellowknife,62.456,-114.3525,-2.55,96,100,3.09,CA,1700414262
8,pesqueira,-8.3578,-36.6964,36.03,22,9,3.45,BR,1700414329
9,papatowai,-46.5619,169.4708,9.37,81,100,2.3,NZ,1700414329
10,west island,-12.1568,96.8225,25.99,73,40,5.66,CC,1700414330
11,waitangi,-43.9535,-176.5597,10.46,97,100,1.34,NZ,1700414330
12,stanley,54.868,-1.6985,10.01,94,20,2.57,GB,1700414330
13,san patricio,28.017,-97.5169,26.92,64,32,5.53,US,1700414051
14,aykhal,66.0,111.5,-18.9,98,100,4.26,RU,1700414034
15,invercargill,-46.4,168.35,8.9,88,54,0.89,NZ,1700414331
16,sabang,5.8933,95.3214,28.11,79,55,6.25,ID,1700414332
17,bayji,34.9311,43.487,19.61,58,99,9.95,IQ,1700414332
18,avarua,-21.2078,-159.775,23.03,73,75,4.63,CK,1700414332
19,fale old settlement,-9.3852,-171.2468,29.07,77,27,8.21,TK,1700414332
20,pandan,14.0453,124.1694,26.17,88,99,8.19,PH,1700414333
21,new plymouth,-39.0667,174.0833,15.45,91,100,5.71,NZ,1700414333
22,udachny,66.4167,112.4,-20.31,83,100,3.86,RU,1700414073
23,urumqi,43.801,87.6005,3.53,70,100,2.0,CN,1700414333
24,nemuro,43.3236,145.575,9.24,73,59,10.33,JP,1700414333
25,sinop,41.7711,34.8709,7.24,68,69,5.43,TR,1700414334
26,burao,9.5221,45.5336,25.33,53,100,3.95,SO,1700414334
27,urucara,-2.5364,-57.76,40.95,24,88,0.59,BR,1700414334
28,buka,40.8108,69.1986,13.13,66,49,0.49,UZ,1700414334
29,gadzhiyevo,69.2551,33.3362,-12.78,97,82,3.11,RU,1700414335
30,warangal,18.0,79.5833,23.57,67,88,1.06,IN,1700414335
31,grytviken,-54.2811,-36.5092,1.7,99,100,2.43,GS,1700414335
32,val-des-monts,45.6501,-75.666,4.4,58,75,4.63,CA,1700414335
33,blackmans bay,-43.0167,147.3167,9.18,93,32,0.89,AU,1700414335
34,tombodu,8.1333,-10.6167,24.25,94,99,0.58,SL,1700414336
35,bredasdorp,-34.5322,20.0403,20.61,61,57,3.51,ZA,1700414336
36,bethel,41.3712,-73.414,12.02,51,0,4.63,US,1700414336
37,atafu village,-8.5421,-172.5159,29.98,69,87,7.3,TK,1700414336
38,talnakh,69.4865,88.3972,-29.89,98,64,1.09,RU,1700414337
39,tazacorte,28.629,-17.9293,22.54,78,20,2.06,ES,1700414337
40,laguna,38.421,-121.4238,12.83,84,0,2.57,US,1700414337
41,luderitz,-26.6481,15.1594,20.79,60,26,2.72,NA,1700414337
42,tilcara,-23.5776,-65.3509,16.93,46,14,3.2,AR,1700414338
43,hermanus,-34.4187,19.2345,19.26,75,69,4.73,ZA,1700414338
44,vicente guerrero,19.1194,-98.1708,20.66,35,0,1.97,MX,1700414338
45,pearsall,28.8922,-99.095,21.66,80,90,3.51,US,1700414338
46,tura,25.5198,90.2201,18.83,92,2,1.29,IN,1700414339
47,albany,42.6001,-73.9662,8.71,56,35,0.45,US,1700414042
48,puerto natales,-51.7236,-72.4875,11.25,43,75,4.12,CL,1700414339
49,sri dungargarh,28.0833,74.0167,21.61,31,0,3.77,IN,1700414339
50,vilyuysk,63.7553,121.6247,-12.22,95,100,4.02,RU,1700414339
51,chonchi,-42.6128,-73.8092,12.84,97,100,3.57,CL,1700414340
52,mejit,10.2753,170.8646,28.56,71,58,7.33,MH,1700414340
53,adamstown,-25.066,-130.1015,22.44,86,100,9.88,PN,1700414340
54,kosh-agach,50.0,88.6667,-10.39,80,65,0.45,RU,1700414340
55,amahai,-3.3333,128.9167,26.2,79,35,0.84,ID,1700414341
56,tiksi,71.6872,128.8694,-29.27,100,93,1.14,RU,1700414341
57,ibresi,55.2961,47.0394,-8.3,76,77,1.45,RU,1700414341
58,thompson,55.7435,-97.8558,-4.91,80,100,2.06,CA,1700414331
59,praia da vitoria,38.7333,-27.0667,15.14,94,75,14.13,PT,1700414221
60,shevchenko,48.5,35.0,0.86,98,100,7.23,UA,1700414342
61,hawaiian paradise park,19.5933,-154.9731,22.24,91,20,3.09,US,1700414342
62,qaqortoq,60.7167,-46.0333,-0.04,95,100,5.96,GL,1700414044
63,ilulissat,69.2167,-51.1,1.01,55,75,7.2,GL,1700414343
64,lazaro cardenas,17.9583,-102.2,29.92,67,13,1.2,MX,1700414066
65,whitehorse,60.7161,-135.0538,-18.57,77,20,1.54,CA,1700414343
66,tindouf,27.6711,-8.1474,26.25,17,0,4.12,DZ,1700414344
67,batang,-6.4846,110.7083,27.59,70,17,3.78,ID,1700414344
68,chinde,26.8418,88.0763,13.32,77,0,1.97,NP,1700414344
69,kavieng,-2.5744,150.7967,27.79,81,18,7.19,PG,1700414345
70,arno,60.1167,18.6333,-2.34,72,89,0.42,SE,1700414345
71,saipan,15.1355,145.701,26.39,100,100,3.6,MP,1700414345
72,hadibu,12.65,54.0333,26.72,72,2,4.53,YE,1700414345
73,carnarvon,-24.8667,113.6333,23.2,76,0,2.74,AU,1700413874
74,westport,41.1415,-73.3579,12.72,49,0,6.71,US,1700414108
75,bilibino,68.0546,166.4372,-21.72,94,100,1.42,RU,1700414346
76,pisco,-13.7,-76.2167,20.03,83,97,6.17,PE,1700414054
77,thouars,46.976,-0.2151,12.94,85,93,4.99,FR,1700414347
78,ain defla,36.2641,1.9679,21.55,28,0,1.56,DZ,1700414347
79,lihue,21.9789,-159.3672,21.77,86,100,7.2,US,1700414348
80,yuzhno-kurilsk,44.0306,145.8556,5.76,84,69,2.79,RU,1700414348
81,ta`u,-14.2336,-169.5144,27.04,68,56,8.72,AS,1700414141
82,port mathurin,-19.6833,63.4167,25.18,74,59,6.26,MU,1700414348
83,jamestown,42.097,-79.2353,8.34,64,100,7.72,US,1700414313
84,klyuchi,52.2667,79.1667,-3.31,56,10,4.3,RU,1700414349
85,east london,-33.0153,27.9116,21.52,94,75,3.23,ZA,1700414349
86,yekaterinoslavka,50.3734,129.1139,-13.6,94,6,2.61,RU,1700414349
87,iqaluit,63.7506,-68.5145,-2.15,79,75,0.0,CA,1700414350
88,port elizabeth,-33.918,25.5701,21.16,89,40,2.06,ZA,1700414076
89,beledweyne,4.7358,45.2036,27.28,72,100,1.27,SO,1700414350
90,caleta de carquin,-11.0925,-77.6267,22.21,72,91,4.15,PE,1700414351
91,i-n-salah,27.1935,2.4607,25.69,17,0,5.19,DZ,1700414351
92,lobujya,27.95,86.8167,-6.7,43,3,0.38,NP,1700414351
93,ilebo,-4.3167,20.5833,22.73,94,99,0.57,CD,1700414351
94,vorgashor,67.5833,63.95,-30.77,100,82,1.15,RU,1700414352
95,quang ngai,15.1167,108.8,21.47,88,96,2.28,VN,1700414352
96,harper,4.375,-7.7169,27.48,79,41,3.27,LR,1700414168
97,anadyr,64.75,177.4833,-2.72,86,75,9.0,RU,1700414352
98,mount gambier,-37.8333,140.7667,12.75,86,85,2.44,AU,1700414353
99,laojunmiao,39.8333,97.7333,1.27,15,6,0.87,CN,1700414353
100,isafjordur,66.0755,-23.124,0.02,86,100,0.0,IS,1700414353
101,coquimbo,-29.9533,-71.3436,16.85,72,40,5.14,CL,1700414271
102,goba,7.0167,39.9833,10.48,95,100,0.54,ET,1700414354
103,kapuskasing,49.4169,-82.4331,-7.95,73,100,4.63,CA,1700414354
104,fort mcmurray,56.7268,-111.381,-2.23,93,40,1.03,CA,1700414120
105,la passe,45.5549,-0.8967,14.13,90,100,3.35,FR,1700414355
106,punta arenas,-53.15,-70.9167,6.06,49,0,4.63,CL,1700414355
107,ola,59.5833,151.2833,-12.42,73,99,6.34,RU,1700414355
108,puerto ayora,-0.7393,-90.3518,25.98,87,67,3.13,EC,1700414356
109,port alfred,-33.5906,26.891,20.66,92,87,2.77,ZA,1700414356
110,es castell,39.8795,4.2854,16.38,94,20,2.06,ES,1700414356
111,poronaysk,49.2167,143.1167,0.47,78,100,1.99,RU,1700414357
112,ribeira grande,38.5167,-28.7,15.22,77,75,12.35,PT,1700414357
113,ust-nera,64.5667,143.2,-29.52,99,97,0.65,RU,1700414357
114,sisimiut,66.9395,-53.6735,-1.19,83,78,11.47,GL,1700414314
115,barra do garcas,-15.89,-52.2567,31.32,55,75,8.23,BR,1700414358
116,codrington,-38.2667,141.9667,12.98,92,80,3.1,AU,1700414358
117,flying fish cove,-10.4217,105.6791,24.82,83,75,4.63,CX,1700414091
118,revda,56.801,59.9303,-7.28,85,98,4.77,RU,1700414359
119,fiambala,-27.6871,-67.6149,28.93,22,0,6.08,AR,1700414359
120,sanya,18.2431,109.505,19.09,88,0,2.0,CN,1700414359
121,gewane,10.1664,40.6453,31.2,44,83,1.87,ET,1700414359
122,margaret river,-33.95,115.0667,13.46,81,88,5.49,AU,1700414360
123,puerto aysen,-45.4,-72.7,7.55,100,100,1.0,CL,1700414173
124,tvoroyri,61.5556,-6.8111,7.33,87,100,14.59,FO,1700414360
125,itaituba,-4.2761,-55.9836,37.09,28,90,2.06,BR,1700414360
126,kodiak,57.79,-152.4072,-4.27,63,40,2.57,US,1700414351
127,achinsk,56.2694,90.4993,-5.45,84,97,8.49,RU,1700414361
128,tandalti,13.0167,31.8667,30.11,19,99,6.0,SD,1700414361
129,chernomorskoye,45.5039,32.6997,4.9,98,100,14.0,UA,1700414362
130,king's lynn,52.7517,0.3952,13.38,90,100,8.54,GB,1700414362
131,atar,20.5169,-13.0499,34.33,10,68,3.02,MR,1700414362
132,san buenaventura,27.0833,-101.5333,21.51,78,40,0.0,MX,1700414363
133,georgetown,5.4112,100.3354,27.23,84,20,2.06,MY,1700414363
134,kerema,-7.9631,145.7785,25.89,88,60,0.49,PG,1700414365
135,progreso,21.2833,-89.6667,29.06,66,44,2.48,MX,1700414366
136,wailua homesteads,22.0669,-159.378,21.44,88,100,7.2,US,1700414367
137,rawson,-43.3002,-65.1023,20.16,24,0,7.72,AR,1700414368
138,enewetak,11.3474,162.3373,28.33,78,68,8.18,MH,1700414370
139,caconda,-13.7333,15.0667,20.5,68,89,3.21,AO,1700414370
140,okeho,8.0333,3.35,30.13,45,91,1.55,NG,1700414370
141,san pedro,14.35,121.0167,26.22,82,20,1.54,PH,1700414370
142,dawei,14.0833,98.2,20.4,77,62,2.26,MM,1700414371
143,petropavlovsk-kamchatsky,53.0452,158.6483,2.33,98,100,7.0,RU,1700414371
144,okhotsk,59.3833,143.3,-14.3,76,4,9.68,RU,1700414371
145,iskateley,67.6803,53.1512,-14.99,97,83,3.58,RU,1700414126
146,roma,43.2128,-75.4557,7.12,91,100,5.66,US,1700414372
147,el calafate,-50.3408,-72.2768,6.51,54,100,1.04,AR,1700414372
148,tahe,52.3333,124.7333,-11.61,94,13,1.81,CN,1700414372
149,lorengau,-2.0226,147.2712,27.89,82,29,4.97,PG,1700414373
150,saint-joseph,-21.3667,55.6167,22.21,72,31,4.51,RE,1700414089
151,arraial do cabo,-22.9661,-42.0278,24.92,88,100,4.12,BR,1700414373
152,st. john's,47.5649,-52.7093,13.97,96,100,7.2,CA,1700414329
153,vila velha,-20.3297,-40.2925,30.97,72,20,5.66,BR,1700414074
154,tazovsky,67.4667,78.7,-26.21,97,75,4.44,RU,1700414374
155,kuching,1.55,110.3333,27.79,97,20,0.51,MY,1700414275
156,nadi,-17.8,177.4167,22.12,82,72,2.84,FJ,1700414374
157,sittwe,20.15,92.9,25.28,85,38,2.03,MM,1700414375
158,kingston,17.997,-76.7936,31.8,63,20,2.57,JM,1700414375
159,cabo san lucas,22.8909,-109.9124,30.84,68,0,1.34,MX,1700414125
160,myeik,12.4333,98.6,21.98,74,28,2.42,MM,1700414376
161,tromso,69.6496,18.957,-1.99,80,75,6.17,NO,1700414376
162,malango,-2.9627,119.9001,20.75,98,70,0.56,ID,1700414376
163,alice,27.7523,-98.0697,24.76,88,100,6.17,US,1700414377
164,vangaindrano,-23.35,47.6,23.39,84,59,5.18,MG,1700414377
165,dalandzadgad,43.5708,104.425,1.43,26,1,1.88,MN,1700414377
166,swakopmund,-22.6833,14.5333,19.75,62,20,6.5,NA,1700414377
167,usogorsk,63.4106,48.6872,-8.52,94,100,3.66,RU,1700414378
168,merizo village,13.2658,144.6691,26.85,96,95,3.67,GU,1700414378
169,illizi,26.4833,8.4667,23.89,19,0,5.41,DZ,1700414378
170,marica,-22.9194,-42.8186,25.97,85,99,7.0,BR,1700414379
171,kukawa,12.9234,13.5606,25.71,32,99,3.01,NG,1700414379
172,awjilah,29.1081,21.2869,18.28,40,0,4.91,LY,1700414379
173,remire-montjoly,4.9167,-52.2667,31.02,66,75,5.66,GF,1700414164
174,canatlan,24.5167,-104.7833,22.8,29,7,2.49,MX,1700414379
175,saarijarvi,62.7049,25.254,-3.91,98,68,1.28,FI,1700414380
176,humaita,-7.5061,-63.0208,36.63,35,47,2.86,BR,1700414380
177,bychawa,51.0161,22.533,0.92,99,100,4.26,PL,1700414380
178,al muwayh,22.4333,41.7583,23.31,68,71,7.08,SA,1700414381
179,dunedin,-45.8742,170.5036,11.56,82,87,1.79,NZ,1700414381
180,puerto ayacucho,5.6639,-67.6236,33.45,56,40,1.21,VE,1700414381
181,katagum,12.2867,10.3527,28.52,19,100,4.59,NG,1700414381
182,fisterra,42.9049,-9.2629,17.08,91,71,5.45,ES,1700414382
183,verde village,34.7105,-112.0115,15.03,70,7,2.24,US,1700414382
184,lebu,-37.6167,-73.65,15.06,71,49,4.8,CL,1700414382
185,quellon,-43.1167,-73.6167,11.72,91,100,8.18,CL,1700414252
186,lepsy,46.235,78.9456,5.06,72,100,0.34,KZ,1700414382
187,port blair,11.6667,92.75,28.02,74,20,2.06,IN,1700414173
188,baotou,40.6522,109.8222,1.92,34,36,2.38,CN,1700414383
189,gidole,5.65,37.3667,13.97,89,98,1.27,ET,1700414178
190,aasiaat,68.7098,-52.8699,-3.24,77,100,6.73,GL,1700414383
191,sao jose da coroa grande,-8.8978,-35.1478,29.2,64,0,6.53,BR,1700414384
192,lindisfarne,-42.8333,147.35,10.0,91,27,2.06,AU,1700414384
193,kuala kedah,6.1,100.3,25.99,89,20,0.0,MY,1700414384
194,san angelo,31.4638,-100.437,18.36,86,100,5.14,US,1700414179
195,northam,51.0333,-4.2167,13.7,89,70,11.92,GB,1700414385
196,alofi,-19.0595,-169.9187,21.94,88,38,1.54,NU,1700414385
197,debre werk',10.6667,38.1667,17.44,63,78,1.45,ET,1700414385
198,college,64.8569,-147.8028,-11.82,82,100,0.0,US,1700414385
199,crane,31.3974,-102.3501,22.33,38,2,10.91,US,1700414386
200,kupang,-10.1667,123.5833,27.32,89,97,0.51,ID,1700414386
201,pasighat,28.0667,95.3333,19.67,77,0,1.47,IN,1700414386
202,vadso,70.0744,29.7487,-6.91,86,20,4.63,NO,1700414386
203,golfito,8.639,-83.166,26.47,89,99,1.35,CR,1700414387
204,nova vicosa,-17.8919,-39.3719,30.13,62,39,8.73,BR,1700414387
205,katsina-ala,7.1667,9.2833,29.5,30,89,0.82,NG,1700414387
206,ancud,-41.8697,-73.8203,11.79,94,100,8.79,CL,1700414387
207,wani,20.0667,78.95,22.68,55,10,1.68,IN,1700414387
208,oranjemund,-28.55,16.4333,19.69,68,34,2.36,NA,1700414388
209,altai,46.3722,96.2583,-0.73,45,88,2.83,MN,1700414388
210,mana,5.6592,-53.7767,29.78,66,56,4.42,GF,1700414388
211,bull savanna,17.8868,-77.5902,27.42,58,28,1.37,JM,1700414389
212,dongola,19.1667,30.4833,24.79,25,91,4.81,SD,1700414389
213,leua,48.2156,18.6071,6.94,91,100,1.23,SK,1700414389
214,longyearbyen,78.2186,15.6401,-9.09,73,75,4.63,SJ,1700414389
215,christchurch,-43.5333,172.6333,13.84,89,75,1.03,NZ,1700414389
216,pangody,65.85,74.4859,-23.02,98,87,4.36,RU,1700414390
217,tutong,4.8,114.65,25.05,93,100,1.54,BN,1700414390
218,alo,7.4178,6.7371,29.29,58,97,1.94,NG,1700414390
219,narasannapeta,18.4167,84.05,23.59,82,72,3.77,IN,1700414391
220,ambovombe,-25.1667,46.0833,24.52,81,26,1.4,MG,1700414391
221,badeggi,9.05,6.15,30.61,31,85,2.41,NG,1700414391
222,holualoa,19.6228,-155.9522,19.91,75,0,3.6,US,1700414391
223,nosy varika,-20.5833,48.5333,23.53,79,5,3.88,MG,1700414392
224,tsaratanana,-16.7833,47.65,28.86,51,80,2.25,MG,1700414392
225,gizo,-8.103,156.8419,27.64,81,62,3.25,SB,1700414392
226,yeniseysk,58.4497,92.1703,-10.59,74,92,6.71,RU,1700414392
227,hun,29.1268,15.9477,18.85,49,6,1.95,LY,1700414393
228,hohhot,40.8106,111.6522,-5.84,58,0,2.0,CN,1700414374
229,zag,46.9441,99.165,-7.97,82,98,0.94,MN,1700414393
230,padangsidempuan,1.3667,99.2667,22.78,98,100,0.85,ID,1700414393
231,kendari,-3.945,122.4989,25.03,87,8,0.58,ID,1700414394
232,kani keli,-12.9536,45.1033,28.59,72,14,1.85,YT,1700414394
233,sinabang,2.4803,96.3801,26.3,86,100,2.43,ID,1700414394
234,blagodatnoye,45.3997,42.5867,7.51,88,100,4.83,RU,1700414394
235,urengoy,65.9667,78.3667,-19.89,96,100,5.68,RU,1700414395
236,sinjai,-5.1241,120.253,25.03,81,5,1.87,ID,1700414395
237,arauca,7.0847,-70.7591,31.85,61,88,2.49,CO,1700414395
238,east ballina,-28.8667,153.5833,19.89,78,100,3.8,AU,1700414395
239,neiafu,-18.65,-173.9833,25.38,94,40,4.12,TO,1700414395
240,chokwe,-24.5333,32.9833,29.01,53,68,5.22,MZ,1700414396
241,houghton,47.1219,-88.569,4.29,60,40,1.54,US,1700414367
242,hasaki,35.7333,140.8333,6.22,64,14,6.82,JP,1700414396
243,bouca,6.5105,18.2733,25.92,65,100,1.83,CF,1700414396
244,fortuna,40.5982,-124.1573,11.1,96,20,1.54,US,1700414397
245,robore,-18.3333,-59.75,38.32,28,78,5.71,BO,1700414397
246,margherita,27.2833,95.6833,19.1,85,0,1.02,IN,1700414397
247,waurn ponds,-38.2167,144.2833,14.47,82,61,0.81,AU,1700414195
248,kyren,51.6828,102.1408,0.53,74,91,1.79,RU,1700414397
249,altay,47.8667,88.1167,1.07,94,100,0.61,CN,1700414398
250,acarau,-2.8856,-40.12,30.82,62,59,8.24,BR,1700414398
251,deir ez-zor,35.3359,40.1408,18.42,64,100,5.3,SY,1700414398
252,blackwater,-23.5833,148.8833,20.94,100,99,5.37,AU,1700414398
253,palmer,42.1584,-72.3287,11.4,43,20,6.17,US,1700414399
254,horby,50.0468,32.4907,-0.98,81,61,4.77,UA,1700414399
255,mahanoro,-19.9,48.8,23.39,78,4,2.55,MG,1700414399
256,yung shue wan,22.2333,114.1167,19.86,68,19,2.65,HK,1700414400
257,discovery bay,37.9085,-121.6002,14.1,60,0,3.13,US,1700414400
258,mersing,2.4312,103.8405,24.95,94,20,3.6,MY,1700414400
259,birobidzhan,48.8,132.95,-11.77,91,8,2.58,RU,1700414401
260,jamaame,0.0697,42.745,24.49,92,100,0.17,SO,1700414401
261,mournies,35.4764,24.0092,13.79,76,40,2.06,GR,1700414401
262,taroudant,30.4703,-8.877,28.17,15,38,4.73,MA,1700414402
263,ocos,14.5094,-92.1933,30.1,75,12,1.51,GT,1700414402
264,gangneung,37.7556,128.8961,6.31,67,1,3.55,KR,1700414216
265,morinville,53.8001,-113.652,4.88,80,0,3.09,CA,1700414403
266,gaspe,48.8334,-64.4819,2.12,55,75,5.14,CA,1700414404
267,utrik,11.2278,169.8474,27.93,77,3,8.06,MH,1700414404
268,zakynthos,37.7914,20.8953,12.02,66,20,0.0,GR,1700414405
269,nova sintra,14.8667,-24.7167,22.93,67,100,7.24,CV,1700414147
270,polyarnyy,69.1989,33.4478,-12.5,96,69,3.16,RU,1700414153
271,nago,26.5881,127.9761,17.24,63,5,2.92,JP,1700414121
272,port saint john's,-31.6229,29.5448,22.63,95,96,4.84,ZA,1700414407
273,bad endbach,50.75,8.5,10.49,91,52,5.71,DE,1700414408
274,port lincoln,-34.7333,135.8667,14.09,87,91,5.22,AU,1700414408
275,hotan,37.0997,79.9269,7.25,17,96,2.03,CN,1700414409
276,luancheng,37.8792,114.6517,2.09,37,0,1.31,CN,1700414409
277,reggane,26.7158,0.1714,26.72,16,0,3.55,DZ,1700414409
278,primero de mayo,-32.2552,-58.4228,28.64,27,32,1.44,AR,1700414410
279,mili,6.0815,171.735,28.3,76,85,6.96,MH,1700414410
280,queenstown,-31.8976,26.8753,21.75,53,83,3.28,ZA,1700414167
281,haiku-pauwela,20.9219,-156.3051,23.91,86,0,3.6,US,1700414146
282,timaru,-44.4,171.25,11.71,93,100,2.24,NZ,1700414411
283,rio grande,-32.035,-52.0986,28.06,38,1,1.28,BR,1700414216
284,kuressaare,58.2481,22.5039,2.75,73,0,6.69,EE,1700414412
285,olonkinbyen,70.9221,-8.7187,1.0,90,100,5.97,SJ,1700414413
286,fort morgan,40.2503,-103.8,11.68,57,6,3.09,US,1700414413
287,rajula,21.05,71.4333,25.3,48,0,1.68,IN,1700414414
288,geraldton,-28.7667,114.6,19.23,82,0,3.6,AU,1700414360
289,timimoun,29.2639,0.231,25.21,19,0,4.63,DZ,1700414414
290,naze,28.3667,129.4833,12.51,63,30,3.33,JP,1700414415
291,nizhnyaya tavda,57.6731,66.1725,-6.5,72,88,3.87,RU,1700414415
292,miles city,46.4083,-105.8406,2.54,87,0,0.0,US,1700414416
293,constantia,44.1833,28.65,1.5,67,45,9.04,RO,1700414416
294,sampit,-2.5333,112.95,24.01,97,83,0.96,ID,1700414416
295,labytnangi,66.6572,66.4183,-27.62,95,10,1.26,RU,1700414417
296,kolokani,13.5728,-8.0339,36.1,13,54,4.8,ML,1700414417
297,conceicao da barra,-18.5933,-39.7322,31.16,57,64,6.79,BR,1700414418
298,mar del plata,-38.0023,-57.5575,22.13,34,0,9.26,AR,1700414162
299,powell,40.1578,-83.0752,12.55,55,0,1.54,US,1700414419
300,ormond-by-the-sea,29.3491,-81.0665,25.13,72,0,4.63,US,1700414419
301,kailua-kona,19.6406,-155.9956,21.98,74,0,3.6,US,1700414132
302,san andres,12.5847,-81.7006,30.01,70,20,4.12,CO,1700414420
303,nadym,65.5333,72.5167,-23.59,100,95,4.84,RU,1700414420
304,kismayo,-0.3582,42.5454,25.1,89,100,0.57,SO,1700414420
305,sao paulo de olivenca,-3.3783,-68.8725,37.2,39,56,1.76,BR,1700414421
306,yongfeng,27.4283,112.1834,13.48,62,1,0.12,CN,1700414421
307,kalulushi,-12.8378,28.0919,24.64,44,58,1.57,ZM,1700414422
308,dieppe,49.75,1.1667,12.96,81,97,1.34,FR,1700414327
309,gangapur,26.4833,76.7167,19.93,43,0,2.35,IN,1700414423
310,sao gabriel da cachoeira,-0.1303,-67.0892,34.89,55,40,3.6,BR,1700414424
311,port augusta,-32.5,137.7667,17.49,66,99,6.45,AU,1700414178
312,newman,37.3138,-121.0208,13.91,64,4,3.13,US,1700414176
313,tabuk,17.4189,121.4443,20.82,87,99,1.61,PH,1700414426
314,ceska lipa,50.6855,14.5376,9.69,95,40,2.65,CZ,1700414427
315,yeppoon,-23.1333,150.7333,20.88,90,74,2.66,AU,1700414427
316,tsiombe,-25.3,45.4833,25.05,75,52,1.26,MG,1700414428
317,king,47.4665,-121.8179,3.66,91,100,2.24,US,1700414429
318,turpan,42.9333,89.1667,7.5,38,100,0.18,CN,1700414429
319,san antonio de pale,-1.4014,5.6325,25.9,85,100,6.01,GQ,1700414430
320,touros,-5.1989,-35.4608,29.85,62,4,5.94,BR,1700414430
321,kone,-21.0595,164.8658,22.07,89,50,2.05,NC,1700414149
322,sechura,-5.5569,-80.8222,26.04,61,62,2.52,PE,1700414168
323,ghat,24.9647,10.1728,21.61,21,85,2.67,LY,1700414431
324,tshikapa,-6.4167,20.8,23.51,92,100,0.98,CD,1700414431
325,hamilton,39.1834,-84.5333,13.92,45,0,0.89,US,1700414229
326,karabaglar,38.374,27.1352,7.35,70,40,1.54,TR,1700414432
327,sitangkai,4.6628,119.3928,27.52,82,77,7.2,PH,1700414399
328,keren,15.7778,38.4581,25.38,57,100,0.29,ER,1700414433
329,las heras,-46.5419,-68.9359,16.44,26,75,4.8,AR,1700414328
330,aripuana,-9.1667,-60.6333,29.43,62,100,1.32,BR,1700414434
331,arroyito,-31.4202,-63.05,31.73,19,13,6.46,AR,1700414434
332,sebdou,34.637,-1.3314,13.61,22,1,2.41,DZ,1700414435
333,segrate,45.4942,9.3001,12.45,73,20,1.03,IT,1700414435
334,new norfolk,-42.7826,147.0587,9.84,97,33,1.23,AU,1700414436
335,linxia chengguanzhen,35.6003,103.2064,4.52,29,0,1.67,CN,1700414436
336,kharp,66.8014,65.8081,-23.79,93,12,2.27,RU,1700414437
337,eenhana,-17.4667,16.3333,31.04,25,99,2.2,NA,1700414439
338,valozhyn,54.0909,26.5225,-1.14,86,100,3.36,BY,1700414440
339,alakurtti,66.9672,30.3491,-17.01,99,70,1.34,RU,1700414440
340,conception bay south,47.4999,-52.9981,13.84,96,100,8.37,CA,1700414441
341,kabansk,52.0486,106.6528,-1.62,87,84,1.38,RU,1700414441
342,uturoa,-16.7333,-151.4333,26.23,82,100,8.72,PF,1700414442
343,terenozek,45.05,64.9833,3.67,59,23,3.95,KZ,1700414442
344,sebastopol,44.6,33.5333,5.0,76,100,2.68,UA,1700414443
345,vernon,50.2581,-119.2691,4.05,93,100,1.54,CA,1700414444
346,tipasa,36.5897,2.4475,20.74,51,0,1.78,DZ,1700414444
347,mendota heights,44.8836,-93.1383,10.35,57,0,4.12,US,1700414445
348,st. paul,44.9444,-93.0933,10.62,56,0,4.92,US,1700414434
349,sitka,57.0531,-135.33,1.94,87,100,2.57,US,1700414446
350,kruisfontein,-34.0033,24.7314,18.19,73,79,3.11,ZA,1700414155
351,hithadhoo,-0.6,73.0833,28.09,78,18,4.8,MV,1700414446
352,naryn,41.4287,75.9911,-2.5,78,31,3.18,KG,1700414447
353,camiri,-20.05,-63.5167,30.88,55,93,0.0,BO,1700414447
354,dryden,49.7833,-92.7503,-0.84,100,0,1.03,CA,1700414448
355,tarinkot,32.6268,65.8733,13.67,44,2,0.5,AF,1700414448
356,earl shilton,52.5768,-1.3154,12.97,85,100,2.68,GB,1700414448
357,bontang,0.1333,117.5,25.58,89,51,2.28,ID,1700414449
358,minas de marcona,-15.2119,-75.1103,21.33,50,96,5.86,PE,1700414449
359,cristalina,-16.7686,-47.6136,25.46,53,65,3.68,BR,1700414449
360,rongai,-0.1733,35.8638,16.8,96,99,1.03,KE,1700414449
361,bundibugyo,0.7414,30.0417,21.53,91,99,1.09,UG,1700414450
362,kill devil hills,36.0307,-75.676,14.43,54,0,5.14,US,1700414451
363,miquelon,47.0975,-56.3814,6.0,78,100,11.93,PM,1700414451
364,nuuk,64.1835,-51.7216,1.34,60,75,5.14,GL,1700414451
365,bubaque,11.2833,-15.8333,28.55,72,98,5.59,GW,1700414452
366,fada,9.5667,8.3,24.64,21,100,2.03,NG,1700414452
367,saudarkrokur,65.7461,-19.6394,0.02,74,88,4.18,IS,1700414452
368,council bluffs,41.2619,-95.8608,12.54,59,100,4.63,US,1700414453
369,aitape,-3.1374,142.3475,25.86,89,21,3.55,PG,1700414453
370,hilo,19.7297,-155.09,24.04,87,20,3.09,US,1700414158
371,thulamahashi,-24.7246,31.1994,29.28,61,70,2.69,ZA,1700414453
372,severo-yeniseyskiy,60.3725,93.0408,-17.65,89,100,6.49,RU,1700414454
373,masuda,34.6667,131.85,14.18,67,87,7.96,JP,1700414454
374,san-pedro,4.7485,-6.6363,27.62,77,39,3.27,CI,1700414454
375,zarghun shahr,32.8473,68.4457,8.17,35,6,1.06,AF,1700414455
376,la paz,-16.5,-68.15,17.99,20,75,4.12,BO,1700414436
377,susuman,62.7833,148.1667,-27.39,99,95,1.47,RU,1700414455
378,yakeshi,49.2833,120.7333,-16.21,99,91,1.78,CN,1700414455
379,nova olinda do norte,-3.8881,-59.0942,39.29,26,58,2.45,BR,1700414456
380,tremonton,41.7119,-112.1655,6.51,93,100,1.79,US,1700414456
381,khandyga,62.6667,135.6,-26.35,100,100,0.47,RU,1700414456
382,kapa'a,22.0752,-159.319,22.18,86,100,7.2,US,1700414456
383,nyurba,63.2842,118.3319,-5.98,95,100,4.9,RU,1700414457
384,hacienda huancane,-15.8222,-70.8856,13.36,30,42,1.95,PE,1700414457
385,zapala,-38.8992,-70.0544,15.1,39,100,4.39,AR,1700414457
386,manggar,-2.8833,108.2667,27.19,78,76,0.83,ID,1700414458
387,arevalo,41.0626,-4.7204,16.28,60,47,2.38,ES,1700414458
388,taulaga,-11.0553,-171.0883,28.93,65,55,8.22,AS,1700414458
389,morehead city,34.7229,-76.726,16.1,63,0,5.14,US,1700414336
390,margate,51.3813,1.3862,13.28,81,93,6.71,GB,1700414174
391,auki,-8.7676,160.7034,25.71,88,71,1.77,SB,1700414459
392,santa cruz,-17.8,-63.1667,32.03,48,75,8.23,BO,1700414459
393,bom jesus,-9.0744,-44.3586,37.04,31,44,1.01,BR,1700414459
394,seaford,50.7714,0.1027,13.58,79,94,8.05,GB,1700414460
395,moranha,27.1833,94.9333,19.25,90,0,0.58,IN,1700414460
396,omutninsk,58.67,52.1932,-7.19,93,99,2.71,RU,1700414460
397,swift current,50.2834,-107.8014,6.45,61,0,5.66,CA,1700414143
398,kosikha,53.3617,84.5822,-2.49,65,46,4.74,RU,1700414461
399,ciudad acuna,29.3232,-100.9522,19.16,83,100,3.09,MX,1700414211
400,monrovia,6.3005,-10.7969,29.87,75,55,2.14,LR,1700414461
401,bel ombre,-4.6167,55.4167,28.91,74,40,3.6,SC,1700414462
402,badger,64.8,-147.5333,-11.86,85,100,0.0,US,1700414463
403,opuwo,-18.0607,13.84,28.56,41,68,6.41,NA,1700414463
404,san sebastian de la gomera,28.0916,-17.1133,28.42,36,0,1.54,ES,1700414464
405,kununurra,-15.7667,128.7333,31.99,51,75,4.63,AU,1700414464
406,ndele,8.4109,20.6473,27.35,42,95,0.29,CF,1700414465
407,koryukivka,51.7688,32.2481,-3.31,67,32,3.62,UA,1700414465
408,marsa alam,25.0757,34.8918,25.68,40,0,4.72,EG,1700414466
409,weno,7.4515,151.8468,25.97,94,40,1.54,FM,1700414466
410,castillos,-34.1667,-53.8333,24.3,39,0,6.27,UY,1700414467
411,al jawf,29.5,38.75,20.85,27,0,2.85,SA,1700414467
412,lethem,3.3803,-59.7968,37.31,34,29,3.56,GY,1700414468
413,el bolson,-41.9667,-71.5167,10.1,92,98,2.97,AR,1700414468
414,qamdo,31.1667,97.2333,-4.12,30,0,0.88,CN,1700414468
415,pathein,16.7833,94.7333,23.13,90,39,2.87,MM,1700414469
416,daura,11.5538,11.4085,28.44,15,91,4.67,NG,1700414469
417,parscov,45.2833,26.55,3.13,72,29,1.57,RO,1700414469
418,alice springs,-23.7,133.8833,18.75,88,63,0.0,AU,1700414470
419,nieves,15.3274,120.9485,24.73,86,63,1.39,PH,1700414470
420,olyokminsk,60.3736,120.4264,-4.31,85,100,4.48,RU,1700414471
421,oriximina,-1.7656,-55.8661,35.76,37,100,3.36,BR,1700414473
422,medina,24.4686,39.6142,27.24,32,20,5.14,SA,1700414474
423,port isabel,26.0734,-97.2086,27.02,68,100,8.23,US,1700414343
424,klaksvik,62.2266,-6.589,7.51,84,100,11.41,FO,1700414474
425,taroa,8.7058,171.2275,28.28,72,23,7.59,MH,1700414475
426,harstad,68.799,16.5293,-1.58,90,98,2.68,NO,1700414475
427,ingeniero guillermo n. juarez,-23.9,-61.85,35.89,36,6,2.63,AR,1700414476
428,lengenfeld,50.5667,12.3667,9.42,80,66,5.6,DE,1700414476
429,tucuma,-0.1833,-50.05,31.96,58,94,3.81,BR,1700414477
430,zomba,-15.386,35.3188,26.59,48,43,0.7,MW,1700414477
431,ahar,38.4774,47.0699,12.12,41,40,6.91,IR,1700414478
432,ulanhot,46.0833,122.0833,-5.05,82,8,1.87,CN,1700414478
433,suva,-18.1416,178.4415,20.71,94,20,1.54,FJ,1700414479
434,kiruna,67.8557,20.2251,-18.49,85,100,1.03,SE,1700414218
435,berezovyy,51.6667,135.7,-5.59,95,99,1.5,RU,1700414480
436,george town,5.4112,100.3354,27.23,84,20,2.06,MY,1700414373
437,slavske,48.8473,23.4459,-0.3,93,100,3.5,UA,1700414481
438,luang namtha,20.9497,101.4011,15.56,89,2,0.76,LA,1700414481
439,tashtagol,52.7657,87.8894,-0.82,90,100,4.02,RU,1700414482
440,khovd,48.0056,91.6419,-0.67,71,97,2.54,MN,1700414484
441,la punta,-33.1837,-66.3127,27.61,28,8,6.0,AR,1700414485
442,san jose de guanipa,8.8872,-64.1651,33.07,34,19,5.17,VE,1700414485
443,namibe,-15.1961,12.1522,25.16,74,18,3.59,AO,1700414486
444,vuktyl,63.8567,57.3094,-8.83,95,100,2.68,RU,1700414487
445,hampton bays,40.869,-72.5176,13.02,48,0,6.17,US,1700414488
446,hobyo,5.3505,48.5268,28.07,77,82,6.12,SO,1700414488
447,launceston,-41.45,147.1667,11.8,87,81,2.06,AU,1700414287
448,manosque,43.8288,5.7869,13.64,83,6,2.66,FR,1700414490
449,juneau,58.3019,-134.4197,-3.0,100,75,1.54,US,1700414377
450,bealanana,-14.55,48.7333,20.6,84,5,1.28,MG,1700414491
451,notodden,59.5594,9.2585,-2.91,92,100,2.09,NO,1700414013
452,juan l. lacaze,-34.4333,-57.4167,25.66,41,33,8.32,UY,1700414492
453,vila franca do campo,37.7167,-25.4333,17.71,99,51,3.51,PT,1700414492
454,kidal,18.4411,1.4078,27.76,11,79,3.83,ML,1700414493
455,newcastle west,52.4492,-9.0611,10.8,87,66,7.1,IE,1700414494
456,biryusinsk,55.9634,97.8235,-2.7,73,99,10.09,RU,1700414495
457,boende,-0.2167,20.8667,22.62,98,69,1.09,CD,1700414495
458,ndelele,4.0333,14.9333,21.76,95,100,0.89,CM,1700414496
459,ternate,0.8,127.4,27.84,75,22,1.39,ID,1700414496
460,puerto lempira,15.2667,-83.7667,27.92,72,95,6.11,HN,1700414496
461,yacuiba,-22.038,-63.6797,29.65,55,84,3.09,BO,1700414497
462,porto novo,6.4965,2.6036,29.9,75,44,3.95,BJ,1700414497
463,guerrero negro,27.9769,-114.0611,20.39,70,100,9.15,MX,1700414497
464,ulladulla,-35.35,150.4667,15.98,79,96,1.75,AU,1700414498
465,wynyard,-41.0,145.7167,9.85,91,67,2.77,AU,1700414498
466,majene,-3.5403,118.9707,26.0,87,31,1.16,ID,1700414498
467,dalnegorsk,44.5604,135.5701,-4.75,77,81,5.03,RU,1700414499
468,aldama,22.9167,-98.0667,25.76,63,6,3.59,MX,1700414499
469,mahina,-17.5065,-149.489,26.87,78,75,2.06,PF,1700414499
470,kulhudhuffushi,6.6221,73.07,28.11,73,98,1.84,MV,1700414479
471,egilsstadir,65.2653,-14.3948,1.95,100,100,1.03,IS,1700414176
472,mount isa,-20.7333,139.5,20.87,94,100,3.09,AU,1700414500
473,camana,-16.6228,-72.7111,21.71,70,69,4.12,PE,1700414500
474,diamantina,-18.2494,-43.6003,26.71,51,53,4.08,BR,1700414501
475,villa gesell,-37.2639,-56.973,19.1,48,1,9.68,AR,1700414243
476,luza,60.6308,47.2512,-6.34,94,100,2.48,RU,1700414502
477,quincy,42.2529,-71.0023,11.46,50,20,7.2,US,1700414502
478,moroni,-11.7022,43.2551,27.22,84,38,0.11,KM,1700414502
479,nar'yan-mar,67.6713,53.087,-14.94,97,84,3.58,RU,1700414503
480,kankanhalli,12.55,77.4167,20.6,79,78,2.77,IN,1700414503
481,alta,69.9689,23.2717,-10.41,85,0,1.54,NO,1700414504
482,namdrik,5.5994,168.1028,27.99,79,46,6.4,MH,1700414504
483,yemva,62.59,50.8594,-7.49,92,100,3.57,RU,1700414504
484,waingapu,-9.6567,120.2641,26.66,78,78,2.44,ID,1700414505
485,mont-dore,-22.2833,166.5833,19.99,77,89,4.27,NC,1700414505
486,kayyerkan,69.3786,87.7439,-29.84,74,99,2.43,RU,1700414505
487,taro,-8.3862,115.28,23.0,95,31,0.26,ID,1700414506
488,ballina,-28.8667,153.5667,19.88,79,100,3.55,AU,1700414506
489,carutapera,-1.195,-46.02,31.83,57,59,4.62,BR,1700414147
490,amos,48.5669,-78.1162,-5.5,64,74,4.48,CA,1700414507
491,brookings,44.3114,-96.7984,13.47,60,0,7.2,US,1700414263
492,kamaishi,39.2667,141.8833,12.69,78,91,7.87,JP,1700414508
493,cururupu,-1.8283,-44.8683,33.09,48,77,3.84,BR,1700414508
494,regina,50.4501,-104.6178,2.24,78,100,6.71,CA,1700414263
495,trinidad,-14.8333,-64.9,27.99,83,75,2.57,BO,1700414509
496,lesnoy,57.6198,63.0784,-6.79,77,47,4.32,RU,1700414509
497,chernyshevskiy,63.0128,112.4714,-6.46,96,100,3.43,RU,1700414510
498,jackson,42.4165,-122.8345,7.08,91,100,0.0,US,1700414282
499,cafayate,-26.073,-65.9761,26.92,44,10,6.08,AR,1700414510
500,petrolina,-9.3986,-40.5008,37.03,32,20,1.54,BR,1700414413
501,les sables-d'olonne,46.6667,-1.8333,13.44,82,96,5.97,FR,1700414511
502,happy valley-goose bay,53.3168,-60.3315,-2.83,80,75,5.14,CA,1700414511
503,quarai,-30.3875,-56.4514,24.87,45,1,3.4,BR,1700414511
504,ves'yegonsk,58.664,37.2604,-7.38,88,100,1.21,RU,1700414512
505,luwuk,-0.9516,122.7875,25.78,85,9,1.65,ID,1700414512
506,tocopilla,-22.092,-70.1979,21.42,66,36,3.07,CL,1700414241
507,ouadda,8.0777,22.4007,24.35,53,46,1.05,CF,1700414513
508,keflavik,64.0049,-22.5624,3.24,93,100,2.57,IS,1700414513
509,tralee,52.2704,-9.7026,11.14,82,75,9.77,IE,1700414513
510,mormugao,15.4,73.8,27.59,78,20,2.06,IN,1700414514
511,bela vista,-22.1089,-56.5211,29.34,67,87,3.51,BR,1700414514
512,kodinsk,58.6881,99.1844,-0.31,80,100,9.5,RU,1700414515
513,selty,57.3132,52.1345,-7.58,73,44,2.17,RU,1700414515
514,liboro,13.8245,122.7295,25.52,87,99,3.94,PH,1700414516
515,kalmunai,7.4167,81.8167,26.15,84,76,2.41,LK,1700414516
516,dudinka,69.4058,86.1778,-29.66,95,65,4.88,RU,1700414340
517,lompoc,34.6391,-120.4579,15.08,71,0,8.23,US,1700414517
518,afaahiti,-17.75,-149.2833,25.93,88,100,9.31,PF,1700414184
519,nova xavantina,-14.6667,-52.35,41.84,20,19,2.13,BR,1700414517
520,cabedelo,-6.9811,-34.8339,30.37,67,23,5.2,BR,1700414518
521,ghanzi,-21.5667,21.7833,31.9,23,91,2.23,BW,1700414518
522,bridgeton,39.4273,-75.2341,14.05,48,0,4.12,US,1700414309
523,myrina,39.8797,25.0742,7.58,81,0,0.0,GR,1700414519
524,prado,-17.3411,-39.2208,29.17,65,44,8.24,BR,1700414519
525,fort st. john,56.2499,-120.8529,0.94,93,75,2.06,CA,1700414519
526,mairi,-11.7114,-40.1489,36.82,26,3,3.23,BR,1700414520
527,naliya,23.2667,68.8333,24.87,25,0,3.24,IN,1700414520
528,lubang,13.8584,120.124,27.27,74,43,10.63,PH,1700414520
529,makaha,21.4694,-158.2175,26.95,78,100,4.12,US,1700414521
530,jinshi,29.6049,111.8701,14.81,64,3,0.46,CN,1700414521
531,wuyang,31.9925,116.2472,12.76,65,0,0.71,CN,1700414522
532,guajara,-2.9667,-57.6667,41.09,23,89,2.02,BR,1700414522
533,dul'durga,50.6761,113.5931,-8.06,96,75,1.6,RU,1700414523
534,anna regina,7.2644,-58.5077,29.87,63,10,3.87,GY,1700414301
535,rundu,-17.9333,19.7667,31.46,22,96,2.23,NA,1700414525
536,mouila,-1.8685,11.0559,24.16,96,100,2.28,GA,1700414526
537,dhulia,20.9,74.7833,27.53,44,67,3.02,IN,1700414527
538,wad az zaki,14.4619,32.2065,28.75,23,100,4.36,SD,1700414529
539,banda aceh,5.5577,95.3222,26.84,84,72,2.13,ID,1700414529
540,paita,-5.0892,-81.1144,23.87,71,36,4.06,PE,1700414530
541,lusambo,-4.9667,23.45,22.87,98,92,1.16,CD,1700414531
542,shihezi,44.3,86.0333,5.62,58,97,0.73,CN,1700414532
543,sultanpur,26.2667,82.0667,22.04,55,0,2.55,IN,1700414532
544,isla mujeres,21.2311,-86.731,27.03,58,6,4.09,MX,1700414533
545,'ain boucif,35.8912,3.1585,15.17,39,0,2.28,DZ,1700414533
546,smithers,54.7804,-127.1743,3.18,87,75,2.57,CA,1700414534
547,mariental,-24.6333,17.9667,34.83,11,27,1.95,NA,1700414535
548,sungho 1-tong,38.9914,125.9778,0.54,74,0,0.88,KP,1700414536
549,parauapebas,-6.0675,-49.9022,31.99,65,40,1.03,BR,1700414537
550,port shepstone,-30.7414,30.455,23.73,91,21,6.18,ZA,1700414538
551,uige,-7.6087,15.0613,20.87,97,100,0.44,AO,1700414539
552,naha,26.2125,127.6811,18.95,63,0,3.09,JP,1700414431
553,port macquarie,-31.4333,152.9167,19.94,81,100,5.77,AU,1700414260
554,marsh harbour,26.5412,-77.0636,24.64,73,5,6.07,BS,1700414543
555,cill airne,52.05,-9.5167,11.03,82,75,9.77,IE,1700414544
556,belawan,3.7755,98.6832,25.16,89,100,1.98,ID,1700414545
557,kapit,2.0167,112.9333,23.53,100,99,0.11,MY,1700414546
558,itoman,26.1247,127.6694,19.01,63,32,3.09,JP,1700414547
559,surgut,61.25,73.4167,-18.84,84,0,5.0,RU,1700414550
560,tongren,27.7172,109.1853,13.92,73,0,0.32,CN,1700414556
561,nuku'alofa,-21.1333,-175.2,23.19,100,75,2.57,TO,1700414558
562,nakamura,32.9833,132.9333,10.25,82,11,2.27,JP,1700414560
563,tanumah,27.1,44.1333,22.59,69,46,3.57,SA,1700414562
564,barcelos,41.5388,-8.6151,18.29,85,54,1.92,PT,1700414563
565,cambria,35.5641,-121.0808,14.47,71,6,1.34,US,1700414564
566,portland,45.5234,-122.6762,8.23,90,75,5.14,US,1700414154
567,puerto baquerizo moreno,-0.9,-89.6,27.55,78,20,5.14,EC,1700414565
568,pushkar,26.5,74.55,19.21,41,0,2.48,IN,1700414566
